[
  {
    "type":"Feature",
    "geometry":{
      "type":"Point",
      "coordinates":[36.7628611,3.0531666666666664]
    },
    "properties":{
      "name": "CHU Mustapha Pacha"
    }
  },
  {
    "type":"Feature",
    "geometry":{
      "type":"Point",
      "coordinates":[36.7803333,2.981388888888889]
    },
    "properties":{
      "name": "CHU Béni Messouss"
    }
  },
  {
    "type":"Feature",
    "geometry":{
      "type":"Point",
      "coordinates":[36.7934167,3.0506944444444444]
    },
    "properties":{
      "name": "CHU Bab El Oued"
    }
  },
  {
    "type":"Feature",
    "geometry":{
      "type":"Point",
      "coordinates":[36.7358889,3.1044722222222223]
    },
    "properties":{
      "name": "CHU Hussein Dey 'Parnet'"
    }
  },
  {
    "type":"Feature",
    "geometry":{
      "type":"Point",
      "coordinates":[36.7046389,3.125777777777778]
    },
    "properties":{
      "name": "EHS Salim Z'mirli"
    }
  },
  {
    "type":"Feature",
    "geometry":{
      "type":"Point",
      "coordinates":[36.7680556,3.0003333333333333]
    },
    "properties":{
      "name": "EHS Dr Madouche 'CNMS'"
    }
  },
  {
    "type":"Feature",
    "geometry":{
      "type":"Point",
      "coordinates":[36.6663056,2.9428055555555557]
    },
    "properties":{
      "name": "CHU Douéra"
    }
  },
  {
    "type":"Feature",
    "geometry":{
      "type":"Point",
      "coordinates":[36.7871111,3.0582499999999997]
    },
    "properties":{
      "name": "EHS Ait Idir"
    }
  },
  {
    "type":"Feature",
    "geometry":{
      "type":"Point",
      "coordinates":[36.7726667,3.040083333333333]
    },
    "properties":{
      "name": "EPH El Biar 'Bitraria'"
    }
  },
  {
    "type":"Feature",
    "geometry":{
      "type":"Point",
      "coordinates":[36.72575,3.0872222222222225]
    },
    "properties":{
      "name": "EPH Kouba"
    }
  },
  {
    "type":"Feature",
    "geometry":{
      "type":"Point",
      "coordinates":[36.81075,2.979777777777778]
    },
    "properties":{
      "name": "EPH Bologhine"
    }
  },
  {
    "type":"Feature",
    "geometry":{
      "type":"Point",
      "coordinates":[36.7204444,3.14775]
    },
    "properties":{
      "name": "EPH El Harrach 'Belfort'"
    }
  },
  {
    "type":"Feature",
    "geometry":{
      "type":"Point",
      "coordinates":[36.7895,3.296222222222222]
    },
    "properties":{
      "name": "EPH Ain Taya"
    }
  },
  {
    "type":"Feature",
    "geometry":{
      "type":"Point",
      "coordinates":[36.7002222,2.8428333333333335]
    },
    "properties":{
      "name": "EPH Zéralda"
    }
  },
  {
    "type":"Feature",
    "geometry":{
      "type":"Point",
      "coordinates":[36.7356111,3.2856944444444443]
    },
    "properties":{
      "name": "EPH Rouiba"
    }
  },
  {
    "type":"Feature",
    "geometry":{
      "type":"Point",
      "coordinates":[36.7341667,3.0533055555555553]
    },
    "properties":{
      "name": "EHS Abderrahmani 'Bir Mourad Rais' "
    }
  }
]
